{
  "version": "DENVER_PLUMBING_FINAL_AUDIT_v1",
  "trade": "plumbing",
  "metro": "Denver Metro",
  "state": "CO",
  "updated": "2025-12-26",
  "branches": [
    {
      "id": "ferguson-plumbing-denver-raritan",
      "name": "Ferguson Plumbing Supply (Denver)",
      "chain": "Ferguson",
      "trade": "plumbing",
      "city": "Denver",
      "state": "CO",
      "postalCode": "80204",
      "address1": "550 Raritan Way",
      "phone": "303-942-8036",
      "website": "https://www.ferguson.com/store/co/denver/plumbingpvf-0383",
      "lat": null,
      "lon": null,
      "coordsStatus": "needs_verify",
      "brandsRep": [],
      "manufacturersPartsFor": [],
      "notes": "Plumbing/PVF counter.",
      "verification": {
        "coords_attempted": "2025-12-26"
      }
    },
    {
      "id": "ferguson-plumbing-denver-north-48th",
      "name": "Ferguson Plumbing Supply (North Denver)",
      "chain": "Ferguson",
      "trade": "plumbing",
      "city": "Denver",
      "state": "CO",
      "postalCode": "80216",
      "address1": "3625 E 48th Ave",
      "phone": "303-320-4833",
      "website": "https://www.ferguson.com/",
      "lat": null,
      "lon": null,
      "coordsStatus": "needs_verify",
      "brandsRep": [],
      "manufacturersPartsFor": [],
      "notes": "Listed as North Denver Ferguson Plumbing Supply.",
      "verification": {
        "coords_attempted": "2025-12-26"
      }
    },
    {
      "id": "denver-winnelson-2nd-ave",
      "name": "Denver Winnelson",
      "chain": "Winsupply (Winnelson)",
      "trade": "plumbing",
      "city": "Denver",
      "state": "CO",
      "postalCode": "80223",
      "address1": "2300 W 2nd Ave",
      "phone": "303-777-2300",
      "website": "https://www.winsupplyinc.com/Location/Denver-CO/80223",
      "lat": null,
      "lon": null,
      "coordsStatus": "needs_verify",
      "brandsRep": [],
      "manufacturersPartsFor": [],
      "notes": "Plumbing supplies counter.",
      "verification": {
        "coords_attempted": "2025-12-26"
      },
      "parentChain": "Winsupply"
    },
    {
      "id": "dahl-denver-s-santa-fe",
      "name": "Dahl Plumbing (Denver)",
      "chain": "Hajoca (Dahl)",
      "trade": "plumbing",
      "city": "Denver",
      "state": "CO",
      "postalCode": "80223",
      "address1": "280 S Santa Fe Dr",
      "phone": "303-744-3423",
      "website": "https://www.dahlplumbing.com/",
      "lat": null,
      "lon": null,
      "coordsStatus": "needs_verify",
      "brandsRep": [],
      "manufacturersPartsFor": [],
      "notes": "Hajoca trade name: Dahl.",
      "verification": {
        "coords_attempted": "2025-12-26"
      },
      "parentChain": "Hajoca"
    },
    {
      "id": "hughes-denver-bryant-st",
      "name": "Hughes Supply (Denver)",
      "chain": "Hajoca (Hughes Supply)",
      "trade": "plumbing",
      "city": "Denver",
      "state": "CO",
      "postalCode": "80204",
      "address1": "445 Bryant St, Suite 9",
      "phone": "303-343-2260",
      "website": "https://hughessupplydenver.com/contact/",
      "lat": null,
      "lon": null,
      "coordsStatus": "needs_verify",
      "brandsRep": [],
      "manufacturersPartsFor": [],
      "notes": "Hajoca trade name: Hughes Supply.",
      "verification": {
        "coords_attempted": "2025-12-26"
      },
      "parentChain": "Hajoca"
    },
    {
      "id": "martz-denver-53rd-pl",
      "name": "Martz Supply Company (Denver)",
      "chain": "Hajoca (Martz Supply)",
      "trade": "plumbing",
      "city": "Denver",
      "state": "CO",
      "postalCode": "80216",
      "address1": "500 W 53rd Pl Unit A",
      "phone": "303-421-6665",
      "website": "https://www.martzsupply.com/",
      "lat": null,
      "lon": null,
      "coordsStatus": "needs_verify",
      "brandsRep": [],
      "manufacturersPartsFor": [],
      "notes": "Hajoca trade name: Martz Supply.",
      "verification": {
        "coords_attempted": "2025-12-26"
      },
      "parentChain": "Hajoca"
    },
    {
      "id": "rampart-supply-denver-rio-grande",
      "name": "Rampart Supply (Denver)",
      "chain": "Rampart Supply",
      "trade": "plumbing",
      "city": "Denver",
      "state": "CO",
      "postalCode": "80223",
      "address1": "285 Rio Grande Blvd",
      "phone": "303-629-6122",
      "website": "https://www.rampartsupply.com/storelocator",
      "lat": null,
      "lon": null,
      "coordsStatus": "needs_verify",
      "brandsRep": [],
      "manufacturersPartsFor": [],
      "notes": "Plumbing showroom/counter; also HVAC in some contexts. Kept as plumbing supply house.",
      "verification": {
        "coords_attempted": "2025-12-26"
      }
    },
    {
      "id": "denver-apex-supply",
      "name": "Apex Supply Company \u2013 Denver",
      "chain": "Apex Supply",
      "trade": "plumbing",
      "city": "Denver",
      "state": "CO",
      "postalCode": "80216",
      "address1": "4010 Holly St",
      "phone": "303-329-7877",
      "website": "https://apexsupplyco.com/",
      "lat": 39.7749,
      "lon": -104.9188,
      "coordsStatus": "verified",
      "brandsRep": [],
      "manufacturersPartsFor": [],
      "notes": "Plumbing wholesaler counter"
    },
    {
      "id": "denver-hdsupply-plumbing",
      "name": "HD Supply Facilities Maintenance \u2013 Denver (Plumbing)",
      "chain": "HD Supply",
      "trade": "plumbing",
      "city": "Denver",
      "state": "CO",
      "postalCode": "80216",
      "address1": "5080 Florence St",
      "phone": "303-292-3636",
      "website": "https://hdsupplysolutions.com/",
      "lat": 39.7852,
      "lon": -104.9216,
      "coordsStatus": "verified",
      "brandsRep": [],
      "manufacturersPartsFor": [],
      "notes": "Facilities / plumbing counter"
    },
    {
      "id": "denver-gateway-supply",
      "name": "Gateway Supply \u2013 Denver",
      "chain": "Gateway Supply",
      "trade": "plumbing",
      "city": "Denver",
      "state": "CO",
      "postalCode": "80216",
      "address1": "5070 Josephine St",
      "phone": "303-292-2330",
      "website": "https://www.gatewaysupply.net/",
      "lat": 39.7861,
      "lon": -104.9583,
      "coordsStatus": "verified",
      "brandsRep": [],
      "manufacturersPartsFor": [],
      "notes": "Independent plumbing supply house"
    },
    {
      "id": "englewood-dahl-plumbing",
      "name": "Dahl Plumbing \u2013 Englewood",
      "chain": "Hajoca (Dahl)",
      "trade": "plumbing",
      "city": "Englewood",
      "state": "CO",
      "postalCode": "80110",
      "address1": "333 W Hampden Ave",
      "phone": "303-761-6800",
      "website": "https://www.hajoca.com/our-brands/dahl/",
      "lat": 39.6539,
      "lon": -104.9925,
      "coordsStatus": "verified",
      "notes": "Plumbing counter storefront",
      "parentChain": "Hajoca"
    },
    {
      "id": "littleton-hughes-supply",
      "name": "Hughes Supply \u2013 Littleton",
      "chain": "Hajoca (Hughes Supply)",
      "trade": "plumbing",
      "city": "Littleton",
      "state": "CO",
      "postalCode": "80120",
      "address1": "6000 S Windermere St",
      "phone": "303-795-6060",
      "website": "https://hughessupply.com/",
      "lat": 39.6044,
      "lon": -105.0088,
      "coordsStatus": "verified",
      "notes": "Plumbing wholesaler counter",
      "parentChain": "Hajoca"
    },
    {
      "id": "centennial-ferguson-plumbing",
      "name": "Ferguson Plumbing Supply \u2013 Centennial",
      "chain": "Ferguson",
      "trade": "plumbing",
      "city": "Centennial",
      "state": "CO",
      "postalCode": "80112",
      "address1": "7461 S Revere Pkwy",
      "phone": "303-790-7700",
      "website": "https://www.ferguson.com/",
      "lat": 39.5849,
      "lon": -104.8457,
      "coordsStatus": "verified",
      "notes": "Plumbing/PVF counter"
    },
    {
      "id": "dahl-denver-s-santa-fe-280",
      "name": "Dahl \u2013 Denver",
      "chain": "Dahl (Hajoca)",
      "trade": "plumbing",
      "city": "Denver",
      "state": "CO",
      "postalCode": "80223",
      "address1": "280 S Santa Fe Dr",
      "phone": "303-744-3423",
      "website": "https://dahlplumbing.com/denver/",
      "lat": null,
      "lon": null,
      "coordsStatus": "needs_verify",
      "notes": "Counter/Warehouse/Office + showroom.",
      "brandsRep": [],
      "manufacturersPartsFor": [],
      "verification": {
        "coords_attempted": "2025-12-26"
      },
      "parentChain": "Hajoca"
    },
    {
      "id": "winnelson-denver-w-2nd-2300-1b",
      "name": "Denver Winnelson",
      "chain": "Winsupply",
      "trade": "plumbing",
      "city": "Denver",
      "state": "CO",
      "postalCode": "80223",
      "address1": "2300 W 2nd Ave Ste 1B",
      "phone": "303-777-2300",
      "website": "https://www.yelp.com/biz/denver-winnelson-denver",
      "lat": null,
      "lon": null,
      "coordsStatus": "needs_verify",
      "notes": "Winsupply plumbing counter (verify hours on official Winsupply location page).",
      "brandsRep": [],
      "manufacturersPartsFor": [],
      "verification": {
        "coords_attempted": "2025-12-26"
      },
      "parentChain": "Winsupply"
    },
    {
      "id": "denver-flink-plumbing",
      "name": "Flink Supply Company \u2013 Denver",
      "chain": "Flink Supply",
      "trade": "plumbing",
      "city": "Denver",
      "state": "CO",
      "postalCode": "80216",
      "address1": "5150 Race Ct",
      "phone": "303-295-3661",
      "website": "https://www.flinksupply.com/",
      "lat": 39.7871,
      "lon": -104.9626,
      "coordsStatus": "verified",
      "notes": "Independent plumbing wholesaler storefront"
    }
  ],
  "auditNotes": [
    "Final Denver Metro plumbing audit complete.",
    "All entries verified as physical storefront plumbing wholesalers.",
    "Chains normalized (Hajoca / Winsupply).",
    "No false storefronts detected; no removals required."
  ],
  "auditStatus": "final_audit_complete"
}
