{
  "version": "1.0-plumbing-seed__ADD5",
  "trade": "plumbing",
  "metro": "Pueblo / South Colorado",
  "state": "CO",
  "updated": "2025-12-26",
  "branches": [
    {
      "id": "ferguson-plumbing-pueblo-s-santa-fe",
      "name": "Ferguson Plumbing Supply (Pueblo)",
      "chain": "Ferguson",
      "trade": "plumbing",
      "city": "Pueblo",
      "state": "CO",
      "postalCode": "81006",
      "address1": "1109 S Santa Fe Ave",
      "phone": "719-547-3077",
      "website": "https://www.ferguson.com/store/co/pueblo/plumbingpvf-0113",
      "lat": null,
      "lon": null,
      "coordsStatus": "needs_verify",
      "brandsRep": [],
      "manufacturersPartsFor": [],
      "notes": "Plumbing/PVF counter.",
      "verification": {
        "coords_attempted": "2025-12-26"
      }
    },
    {
      "id": "pueblo-winnelson-ilex",
      "name": "Pueblo Winnelson",
      "chain": "Winsupply (Winnelson)",
      "trade": "plumbing",
      "city": "Pueblo",
      "state": "CO",
      "postalCode": "81003",
      "address1": "300 Ilex St",
      "phone": "719-544-1584",
      "website": "http://www.pueblowinnelson.com/",
      "lat": 38.2577236,
      "lon": -104.6039515,
      "coordsStatus": "verified",
      "brandsRep": [],
      "manufacturersPartsFor": [],
      "notes": "Coordinates sourced from public distributor listing."
    },
    {
      "id": "rampart-supply-pueblo-4th",
      "name": "Rampart Supply (Pueblo)",
      "chain": "Rampart Supply",
      "trade": "plumbing",
      "city": "Pueblo",
      "state": "CO",
      "postalCode": "81003",
      "address1": "320 E 4th St",
      "phone": "719-583-0111",
      "website": "https://www.rampartsupply.com/storelocator",
      "lat": null,
      "lon": null,
      "coordsStatus": "needs_verify",
      "brandsRep": [],
      "manufacturersPartsFor": [],
      "notes": "Plumbing supply house; also HVAC in some contexts.",
      "verification": {
        "coords_attempted": "2025-12-26"
      }
    },
    {
      "id": "winsupply-salida-oak-001",
      "name": "Winsupply of Salida",
      "chain": "Winsupply",
      "trade": "plumbing",
      "city": "Salida",
      "state": "CO",
      "postalCode": "81201",
      "address1": "338 Oak St",
      "phone": "719-530-0501",
      "website": "https://www.winsupplyinc.com/Location/Salida-CO/81201/Plumbing-Supplies",
      "lat": null,
      "lon": null,
      "coordsStatus": "needs_verify",
      "brandsRep": [],
      "manufacturersPartsFor": [],
      "notes": "Plumbing and HVAC supply serving Arkansas Valley region",
      "verification": {
        "storefront_confirmed": "2025-12-26",
        "sources": [
          "https://www.winsupplyinc.com/Location/Salida-CO/81201/Plumbing-Supplies",
          "https://www.chamberofcommerce.com/business-directory/colorado/salida/heating-equipment-supplier/2012397317-winsupply-of-salida"
        ]
      }
    }
  ],
  "auditNotes": [
    "Seed pass: storefront plumbing supply houses (counter locations) gathered from public store locator / brand pages. Some entries may require strict lat/lon verification.",
    "2025-12-26: Removed 1 duplicate Winnelson entry at 300 Ilex St",
    "2025-12-26: Added Winsupply of Salida location identified in expansion research."
  ],
  "auditStatus": "expanded"
}