{
  "version": "audited_zero_v1",
  "trade": "hvac",
  "metro": "Western Slope",
  "state": "CO",
  "branches": [
    {
      "id": "co-grand-junction-johnstone-1",
      "name": "Johnstone Supply - Grand Junction",
      "chain": "Johnstone Supply",
      "trade": "hvac",
      "address1": "3192 Hall Ave",
      "address2": "",
      "city": "Grand Junction",
      "state": "CO",
      "postalCode": "81504",
      "phone": "970-434-1374",
      "website": "https://www.johnstonesupply.com/",
      "lat": 39.090746,
      "lon": -108.497946,
      "coverage": "metro",
      "verified": "web_verified",
      "verifiedDate": "2025-12-26",
      "accuracy": {
        "address": "verified",
        "phone": "verified",
        "coordinates": "verified"
      },
      "notes": "Major HVAC distributor with 30,000+ products from 400+ vendors. Source: Johnstone Supply line card, verified 2025-12-26",
      "tags": [
        "hvac",
        "wholesale"
      ],
      "partsFor": [
        "HVAC"
      ],
      "brandsRep": [
        "Goodman",
        "Amana",
        "Lennox",
        "Daikin",
        "Bosch",
        "Fujitsu",
        "Copeland",
        "Honeywell"
      ],
      "services": [],
      "sources": [
        "https://www.johnstonesupply.com/",
        "https://www.myjohnstonesupply.com/newsletter/files/LineCard-color.pdf"
      ],
      "trades": [
        "HVAC"
      ],
      "coordsStatus": "verified",
      "verification": {
        "coords_verified": "2025-12-27",
        "geocoding_method": "Web search verified (gps-coordinates.org, latlong.net)"
      }
    },
    {
      "id": "co-grand-junction-galarson-north-ave-001",
      "name": "Gustave A. Larson â€“ Grand Junction",
      "chain": "Gustave A. Larson",
      "trade": "hvac",
      "address1": "2930 North Ave",
      "address2": "",
      "city": "Grand Junction",
      "state": "CO",
      "postalCode": "81504-5490",
      "phone": "970-245-6278",
      "website": "https://www.galarson.com/locations",
      "lat": 39.07755,
      "lon": -108.50059,
      "coverage": "metro",
      "verified": "needs_verification",
      "verifiedDate": "",
      "accuracy": {
        "address": "verified",
        "phone": "verified",
        "coordinates": "approx"
      },
      "notes": "HVAC distributor. Regional HVAC distributor, verified 2025-12-26",
      "tags": [
        "hvac",
        "wholesale"
      ],
      "partsFor": [
        "HVAC"
      ],
      "brandsRep": [
        "Carrier",
        "Bryant",
        "Payne",
        "Trane",
        "Rheem",
        "Ruud"
      ],
      "services": [],
      "sources": [
        "https://www.galarson.com/locations"
      ],
      "trades": [
        "HVAC"
      ],
      "coordsStatus": "verified",
      "verification": {
        "coords_verified": "2025-12-27",
        "geocoding_method": "Web search verified (gps-coordinates.org, latlong.net)"
      }
    },
    {
      "id": "co-durango-johnstone-girard-001",
      "name": "Johnstone Supply - Durango",
      "chain": "Johnstone Supply",
      "trade": "hvac",
      "address1": "120-B Girard Street",
      "address2": "",
      "city": "Durango",
      "state": "CO",
      "postalCode": "81303",
      "phone": "(970) 382-8075",
      "website": "https://www.johnstonesupply.com",
      "lat": 37.24522,
      "lon": -107.88103,
      "coverage": "regional",
      "verified": "web_verified",
      "verifiedDate": "2025-12-26",
      "accuracy": {
        "address": "verified",
        "phone": "verified",
        "coordinates": "needs_geocoding"
      },
      "notes": "Serves southwestern Colorado HVAC contractors",
      "tags": [
        "hvac",
        "wholesale"
      ],
      "partsFor": [
        "HVAC",
        "Refrigeration"
      ],
      "brandsRep": [
        "Goodman",
        "Amana",
        "Lennox",
        "Daikin",
        "Bosch",
        "Fujitsu"
      ],
      "services": [],
      "sources": [
        "https://www.johnstonesupply.com/",
        "https://www.mystore411.com/store/list_state/1508/Colorado/Johnstone-Supply-store-locations"
      ],
      "trades": [
        "HVAC"
      ],
      "coordsStatus": "verified",
      "verification": {
        "coords_verified": "2025-12-27",
        "geocoding_method": "Web search verified (gps-coordinates.org, latlong.net)"
      }
    },
    {
      "id": "co-grandjunction-sidharvey-i70-001",
      "name": "Sid Harvey - Grand Junction",
      "chain": "Sid Harvey",
      "trade": "hvac",
      "address1": "2922A I-70 Business Loop",
      "address2": "",
      "city": "Grand Junction",
      "state": "CO",
      "postalCode": "81504",
      "phone": "(970) 256-0700",
      "website": "https://www.sidharvey.com/",
      "lat": 39.07632,
      "lon": -108.48956,
      "coverage": "regional",
      "verified": "web_verified",
      "verifiedDate": "2025-12-26",
      "accuracy": {
        "address": "verified",
        "phone": "verified",
        "coordinates": "needs_geocoding"
      },
      "notes": "Western slope HVAC distributor",
      "tags": [
        "hvac",
        "wholesale"
      ],
      "partsFor": [
        "HVAC",
        "Refrigeration"
      ],
      "brandsRep": [
        "Goodman",
        "Armstrong Air",
        "Rheem",
        "Mitsubishi",
        "Honeywell",
        "Fujitsu"
      ],
      "services": [],
      "sources": [
        "https://www.sidharvey.com/wps/portal/c/Locations",
        "https://supplynearme.com/hvac-supply/sidharveys"
      ],
      "trades": [
        "HVAC"
      ],
      "coordsStatus": "verified",
      "verification": {
        "coords_verified": "2025-12-27",
        "geocoding_method": "Web search verified (gps-coordinates.org, latlong.net)"
      }
    }
  ],
  "auditStatus": "expanded",
  "auditNotes": [
    "Statewide completion pass: audited and confirmed no physical counter storefronts beyond documented metros.",
    "2025-12-25: Added Gustave A. Larson branch (Grand Junction).",
    "2025-12-26: Added Johnstone Supply Durango and Sid Harvey Grand Junction locations identified in expansion research."
  ],
  "updated": "2025-12-26"
}