{
  "version": "DENVER_SOUTH_DEEP_FILL_v1",
  "updated": "2025-12-25",
  "state": "CO",
  "metro": "Denver Metro",
  "branches": [
    {
      "id": "co-denver-baker-englewood-platte-001",
      "name": "Baker Distributing – Englewood (South Denver)",
      "chain": "Baker Distributing",
      "address1": "3107 S Platte River Dr",
      "city": "Englewood",
      "state": "CO",
      "zip": "80110",
      "phone": "+13037831120",
      "lat": 39.6594,
      "lon": -104.9976,
      "brandsRep": [
        "Goodman",
        "Daikin"
      ],
      "partsFor": [
        "Goodman",
        "Daikin",
        "Aprilaire"
      ],
      "tags": [
        "residential"
      ]
    },
    {
      "id": "co-denver-baker-ice-denver-osage-001",
      "name": "Baker Distributing – Ice Design Center (Denver)",
      "chain": "Baker Distributing",
      "address1": "5050 Osage St Suite 300",
      "city": "Denver",
      "state": "CO",
      "zip": "80221",
      "phone": "+13038931120",
      "lat": 39.7917,
      "lon": -105.0023,
      "brandsRep": [
        "Daikin",
        "Goodman"
      ],
      "partsFor": [
        "Daikin",
        "Goodman"
      ],
      "tags": [
        "commercial",
        "refrigeration"
      ],
      "notes": "Ice Design Center"
    },
    {
      "id": "co-denver-ferguson-denver-0383",
      "name": "Ferguson - Denver (Plumbing/PVF)",
      "chain": "Ferguson",
      "address1": "550 Raritan Way",
      "address2": "",
      "city": "Denver",
      "state": "CO",
      "zip": "80204-4931",
      "phone": "+13039428036",
      "website": "https://www.ferguson.com/store/co/denver/plumbingpvf-0383",
      "hours": "",
      "lat": 39.72406,
      "lon": -105.00913,
      "brandsRep": [],
      "partsFor": [],
      "tags": [
        "hvac"
      ],
      "notes": "https://www.ferguson.com/store/co/denver/plumbingpvf-0383"
    },
    {
      "id": "co-denver-fergusonhvac-raritan-001",
      "name": "Ferguson HVAC – Denver",
      "chain": "Ferguson HVAC",
      "address1": "550 Raritan Way",
      "address2": "Unit A",
      "city": "Denver",
      "state": "CO",
      "zip": "80204-4931",
      "phone": "+13039428036",
      "lat": 39.7337,
      "lon": -105.0356,
      "brandsRep": [],
      "partsFor": [],
      "tags": [
        "hvac",
        "wholesale"
      ],
      "sources": [
        "https://www.ferguson.com/store/co/denver/hvac-0383"
      ]
    },
    {
      "id": "co-denver-galarson-washington-001",
      "name": "Gustave A. Larson – Denver",
      "chain": "Gustave A. Larson",
      "address1": "6030 Washington St, Suite 100",
      "city": "Denver",
      "state": "CO",
      "zip": "80216",
      "phone": "+13038921550",
      "lat": 39.8072,
      "lon": -104.9786,
      "brandsRep": [],
      "partsFor": [],
      "tags": [
        "hvacr",
        "wholesale"
      ],
      "sources": [
        "https://www.galarson.com/locations",
        "https://www.achrnews.com/directories/2937-hvacr-directory/listing/10077-gustave-a-larson-co"
      ]
    },
    {
      "name": "Hercules Industries (HQ) - Denver",
      "chain": "Hercules Industries",
      "address1": "1310 W Evans Ave",
      "address2": "",
      "city": "Denver",
      "state": "CO",
      "zip": "80223",
      "phone": "+13037777241",
      "website": "https://www.herculesindustries.com/locations/",
      "hours": "",
      "lat": 39.67839,
      "lon": -105.00272,
      "brandsRep": [],
      "partsFor": [],
      "tags": [
        "hvac",
        "ductwork",
        "supply-house"
      ],
      "notes": "Verified via Hercules Industries locations page (Denver HQ).",
      "id": "co-herculesindu-d7ea9ca0"
    },
    {
      "id": "co-denver-johnstone-7th-001",
      "name": "Johnstone Supply – Denver (#5)",
      "chain": "Johnstone Supply",
      "address1": "2701 W 7th Ave",
      "city": "Denver",
      "state": "CO",
      "zip": "80204-4114",
      "phone": "+13035735626",
      "lat": 39.7279,
      "lon": -105.0219,
      "brandsRep": [],
      "partsFor": [],
      "tags": [
        "hvacr",
        "wholesale"
      ],
      "sources": [
        "https://www.johnstonesupply.com/store5/contact-us"
      ]
    },
    {
      "name": "Lennox Stores - Centennial",
      "chain": "Lennox Stores",
      "address1": "7367 S Revere Parkway",
      "address2": "Unit 1D",
      "city": "Centennial",
      "state": "CO",
      "zip": "80112",
      "phone": "+17205311678",
      "website": "https://m.lennoxpros.com/stores/location/denver",
      "hours": "M-F: 7:30 am - 4:30 pm (Drive-Thru)",
      "lat": 39.58202,
      "lon": -104.84064,
      "brandsRep": [
        "Lennox"
      ],
      "partsFor": [
        "Lennox"
      ],
      "tags": [
        "hvac",
        "equipment",
        "parts"
      ],
      "notes": "Verified via LennoxPros Denver area stores page.",
      "id": "co-lennoxstores-95d62dda"
    },
    {
      "id": "co-denver-lohmiller-osage-001",
      "name": "Lohmiller & Company (Carrier West) – Denver",
      "chain": "Lohmiller & Company (Carrier West)",
      "address1": "4800 Osage St",
      "city": "Denver",
      "state": "CO",
      "zip": "80221",
      "phone": "+13038254328",
      "lat": 39.7831,
      "lon": -105.0068,
      "brandsRep": [
        "Carrier",
        "Bryant",
        "Payne"
      ],
      "partsFor": [
        "Carrier",
        "Bryant",
        "Payne"
      ],
      "tags": [
        "hvac",
        "wholesale",
        "oem-parts"
      ],
      "sources": [
        "https://www.lohmillercompany.com/locations/denver/",
        "https://www.lohmillercompany.com/locations/"
      ]
    },
    {
      "id": "co-englewood-lohmiller-concord-001",
      "name": "Lohmiller & Company (Carrier West) – Englewood",
      "chain": "Lohmiller & Company (Carrier West)",
      "address1": "8465 Concord Center Dr",
      "city": "Englewood",
      "state": "CO",
      "zip": "80112",
      "phone": "+13033711244",
      "lat": 39.5587,
      "lon": -104.846,
      "brandsRep": [
        "Carrier",
        "Bryant",
        "Payne"
      ],
      "partsFor": [
        "Carrier",
        "Bryant",
        "Payne"
      ],
      "tags": [
        "hvac",
        "wholesale",
        "oem-parts"
      ],
      "sources": [
        "https://www.lohmillercompany.com/locations/"
      ]
    },
    {
      "id": "co-denver-rsd-osage-001",
      "name": "RSD (Refrigeration Supplies Distributor) – Denver",
      "chain": "RSD (Refrigeration Supplies Distributor)",
      "address1": "4800 Osage St, Suite 800",
      "city": "Denver",
      "state": "CO",
      "zip": "80221",
      "phone": "+13035685300",
      "lat": 39.783,
      "lon": -105.0066,
      "brandsRep": [],
      "partsFor": [],
      "tags": [
        "hvacr",
        "wholesale"
      ],
      "sources": [
        "https://www.rsd.net/store/0072-denver-co",
        "https://www.mapquest.com/us/colorado/refrigeration-supplies-distributor-380660905"
      ]
    },
    {
      "id": "co-denver-rsd-denver-osage-001",
      "name": "RSD – Denver (Store #72)",
      "chain": "RSD (Refrigeration Supplies Distributor)",
      "address1": "4800 Osage St. Suite 800",
      "city": "Denver",
      "state": "CO",
      "zip": "80221",
      "phone": "+13035685300",
      "lat": 39.7866,
      "lon": -105.0045,
      "brandsRep": [
        "Trane",
        "Carrier",
        "Lennox"
      ],
      "partsFor": [
        "Trane",
        "Carrier",
        "Lennox"
      ],
      "tags": [
        "commercial",
        "residential"
      ]
    },
    {
      "id": "co-denver-tranesupply-denver-bryant-001",
      "name": "Trane Supply – Denver (Bryant)",
      "chain": "Trane Supply",
      "address1": "445 Bryant St, Unit 5",
      "city": "Denver",
      "state": "CO",
      "zip": "80204",
      "phone": "+13032283310",
      "lat": 39.7277,
      "lon": -105.0182,
      "brandsRep": [
        "Trane"
      ],
      "partsFor": [
        "Trane"
      ],
      "tags": [
        "commercial",
        "residential"
      ]
    },
    {
      "id": "co-denver-uri-pecos-001",
      "name": "United Refrigeration – Denver",
      "chain": "United Refrigeration",
      "address1": "140 S Pecos St, Units A & B",
      "address2": "Also listed as 560 S Lipan St (same storefront listing)",
      "city": "Denver",
      "state": "CO",
      "zip": "80223-1781",
      "phone": "+13037449100",
      "lat": 39.7127,
      "lon": -105.005,
      "brandsRep": [],
      "partsFor": [],
      "tags": [
        "hvacr",
        "wholesale"
      ],
      "sources": [
        "https://www.achrnews.com/directories/2937-hvacr-directory/listing/15246-united-refrigeration-inc-denver-co",
        "https://www.mapquest.com/us/colorado/united-refrigeration-9987080",
        "https://www.yelp.com/biz/united-refrigeration-denver"
      ]
    },
    {
      "id": "co-denver-united-denver-pecos-001",
      "name": "United Refrigeration – Denver (Pecos)",
      "chain": "United Refrigeration",
      "address1": "140 South Pecos Street, Units A and B",
      "city": "Denver",
      "state": "CO",
      "zip": "80223-1781",
      "phone": "+13037449100",
      "lat": 39.7126,
      "lon": -105.0059,
      "brandsRep": [
        "Carrier",
        "Lennox"
      ],
      "partsFor": [
        "Carrier",
        "Lennox",
        "Honeywell"
      ],
      "tags": [
        "commercial",
        "residential"
      ],
      "notes": ""
    },
    {
      "name": "Denver Winair",
      "chain": "Winair / Winsupply",
      "address1": "1550 W Evans Ave",
      "address2": "Unit M",
      "city": "Denver",
      "state": "CO",
      "zip": "80223",
      "phone": "+13037650663",
      "website": "https://www.denverwinair.com",
      "hours": "",
      "lat": 39.67752,
      "lon": -105.00594,
      "brandsRep": [],
      "partsFor": [],
      "tags": [
        "hvac",
        "supply-house"
      ],
      "notes": "Verified via Denver Winair contact page.",
      "id": "co-winairwinsup-ca256015"
    },
    {
      "name": "North Denver Winair",
      "chain": "Winair / Winsupply",
      "address1": "490 E 76th Ave",
      "address2": "Unit 6B",
      "city": "Denver",
      "state": "CO",
      "zip": "80229",
      "phone": "+13032872633",
      "website": "https://www.northdenverwinair.com",
      "hours": "",
      "lat": 39.8318,
      "lon": -104.98188,
      "brandsRep": [],
      "partsFor": [],
      "tags": [
        "hvac",
        "supply-house"
      ],
      "notes": "Verified via Winsupply/North Denver Winair contact page.",
      "id": "co-winairwinsup-97b08e60"
    },
    {
      "id": "co-denver-lennoxstores-001",
      "name": "Lennox Stores – Denver",
      "chain": "Lennox Stores",
      "address1": "2000 W 64th Ln",
      "city": "Denver",
      "state": "CO",
      "zip": "80221",
      "phone": "+13034288200",
      "lat": 39.8124,
      "lon": -105.0157,
      "tags": [
        "hvac",
        "equipment",
        "parts"
      ]
    },
    {
      "id": "co-aurora-lennoxstores-001",
      "name": "Lennox Stores – Aurora",
      "chain": "Lennox Stores",
      "address1": "19100 E 22nd Ave",
      "city": "Aurora",
      "state": "CO",
      "zip": "80011",
      "phone": "+13033638100",
      "lat": 39.7475,
      "lon": -104.7638,
      "tags": [
        "hvac",
        "equipment",
        "parts"
      ]
    },
    {
      "id": "co-denver-winsupply-hvac-001",
      "name": "WinSupply HVAC – Denver",
      "chain": "WinSupply HVAC",
      "address1": "5151 Bannock St",
      "city": "Denver",
      "state": "CO",
      "zip": "80216",
      "phone": "+13032952800",
      "lat": 39.7901,
      "lon": -104.9908,
      "tags": [
        "hvac",
        "equipment",
        "parts"
      ]
    },
    {
      "id": "co-denver-hvacdistco-001",
      "name": "HVAC Distributors Co – Denver",
      "chain": "HVAC Distributors Co",
      "address1": "4900 Washington St",
      "city": "Denver",
      "state": "CO",
      "zip": "80216",
      "phone": "+13032973200",
      "lat": 39.7879,
      "lon": -104.9789,
      "tags": [
        "hvac",
        "equipment",
        "parts",
        "local"
      ]
    },
    {
      "id": "co-denver-usair-001",
      "name": "US Air Distributors – Denver",
      "chain": "US Air Distributors",
      "address1": "5151 Bannock St",
      "city": "Denver",
      "state": "CO",
      "zip": "80216",
      "phone": "+13032952800",
      "lat": 39.7901,
      "lon": -104.9908,
      "tags": [
        "hvac",
        "equipment",
        "parts",
        "local"
      ]
    },
    {
      "id": "co-denver-acdist-001",
      "name": "A/C Distributors – Denver",
      "chain": "A/C Distributors",
      "address1": "2501 W 3rd Ave",
      "city": "Denver",
      "state": "CO",
      "zip": "80219",
      "phone": "+13039340000",
      "lat": 39.7098,
      "lon": -105.0219,
      "tags": [
        "hvac",
        "equipment",
        "parts",
        "local"
      ]
    },
    {
      "id": "co-commercecity-hvacdistco-001",
      "name": "HVAC Distributors Co – Commerce City",
      "chain": "HVAC Distributors Co",
      "address1": "6175 E 56th Ave",
      "city": "Commerce City",
      "state": "CO",
      "zip": "80022",
      "phone": "+13032881111",
      "lat": 39.8006,
      "lon": -104.9157,
      "tags": [
        "hvac",
        "equipment",
        "parts",
        "local"
      ]
    },
    {
      "id": "co-thornton-acdist-001",
      "name": "A/C Distributors – Thornton",
      "chain": "A/C Distributors",
      "address1": "899 E 84th Ave",
      "city": "Thornton",
      "state": "CO",
      "zip": "80229",
      "phone": "+13032870800",
      "lat": 39.8465,
      "lon": -104.9762,
      "tags": [
        "hvac",
        "equipment",
        "parts",
        "local"
      ]
    },
    {
      "id": "co-englewood-comfortair-001",
      "name": "Comfort Air Distributing – Englewood",
      "chain": "Comfort Air Distributing",
      "address1": "333 W Hampden Ave",
      "city": "Englewood",
      "state": "CO",
      "zip": "80110",
      "phone": "+13037616800",
      "lat": 39.6539,
      "lon": -104.9925,
      "tags": [
        "hvac",
        "equipment",
        "parts"
      ]
    },
    {
      "id": "co-centennial-lennoxstores-001",
      "name": "Lennox Stores – Centennial",
      "chain": "Lennox Stores",
      "address1": "7367 S Revere Pkwy Unit 1D",
      "city": "Centennial",
      "state": "CO",
      "zip": "80112",
      "phone": "+13037908800",
      "lat": 39.5862,
      "lon": -104.8454,
      "tags": [
        "hvac",
        "equipment",
        "parts"
      ]
    },
    {
      "id": "co-wheatridge-winair-001",
      "name": "WinAir – Wheat Ridge",
      "chain": "WinAir",
      "address1": "4895 Ward Rd Unit B",
      "city": "Wheat Ridge",
      "state": "CO",
      "zip": "80033",
      "phone": "+13034231100",
      "lat": 39.7847,
      "lon": -105.1376,
      "tags": [
        "hvac",
        "equipment",
        "parts"
      ]
    },
    {
      "id": "co-centennial-comfortair-002",
      "name": "Comfort Air Distributing – Centennial",
      "chain": "Comfort Air Distributing",
      "address1": "7347 S Revere Pkwy",
      "city": "Centennial",
      "state": "CO",
      "zip": "80112",
      "phone": "+13037908800",
      "lat": 39.5858,
      "lon": -104.845,
      "tags": [
        "hvac",
        "equipment",
        "parts"
      ]
    },
    {
      "id": "co-centennial-rsd-001",
      "name": "RSD – Centennial",
      "chain": "RSD",
      "address1": "6825 S Galena St",
      "city": "Centennial",
      "state": "CO",
      "zip": "80112",
      "phone": "+13037904000",
      "lat": 39.5951,
      "lon": -104.8895,
      "tags": [
        "hvac",
        "equipment",
        "parts"
      ]
    },
    {
      "id": "co-denver-rampart-001",
      "name": "Rampart Supply – Denver",
      "chain": "Rampart Supply",
      "address1": "285 Rio Grande Blvd",
      "city": "Denver",
      "state": "CO",
      "zip": "80223",
      "phone": "+13036296122",
      "lat": 39.69296,
      "lon": -105.00534,
      "brandsRep": [
        "Hydronic",
        "Heating",
        "Plumbing"
      ],
      "partsFor": [
        "Boilers",
        "Hydronic components",
        "Heating",
        "Plumbing"
      ],
      "tags": [
        "hvac-hydronics",
        "wholesale"
      ]
    },
    {
      "id": "co-denver-electrical-graybar-denver-area-service-center-480-e-55th",
      "name": "Graybar (Denver Area Service Center)",
      "chain": "Graybar",
      "address1": "480 E 55TH AVE UNIT 500",
      "city": "Denver",
      "state": "CO",
      "zip": "80216",
      "phone": "+17206024400",
      "lat": null,
      "lon": null,
      "brandsRep": [],
      "partsFor": [],
      "tags": [
        "electrical",
        "wholesale"
      ]
    },
    {
      "id": "co-denver-electrical-rexel-denver-425-quivas",
      "name": "Rexel Denver (#7325)",
      "chain": "Rexel",
      "address1": "425 Quivas Street",
      "city": "Denver",
      "state": "CO",
      "zip": "80204",
      "phone": "+13035727100",
      "lat": null,
      "lon": null,
      "brandsRep": [],
      "partsFor": [],
      "tags": [
        "electrical",
        "wholesale"
      ]
    },
    {
      "id": "co-denver-electrical-rexel-denver-east-11175-e-55th",
      "name": "Rexel Denver East (#3201)",
      "chain": "Rexel",
      "address1": "11175 E 55TH AVE, UNIT 100",
      "city": "Denver",
      "state": "CO",
      "zip": "80239",
      "phone": "+13037285888",
      "lat": null,
      "lon": null,
      "brandsRep": [],
      "partsFor": [],
      "tags": [
        "electrical",
        "wholesale"
      ]
    },
    {
      "id": "co-denver-electrical-ced-denver-2405-w-5th",
      "name": "CED (Consolidated Electrical Distributors) - Denver",
      "chain": "CED",
      "address1": "2405 W 5th Avenue",
      "city": "Denver",
      "state": "CO",
      "zip": "80204",
      "phone": "+13036231233",
      "lat": null,
      "lon": null,
      "brandsRep": [],
      "partsFor": [],
      "tags": [
        "electrical",
        "wholesale"
      ]
    },
    {
      "id": "co-denver-electrical-ces-denver-central-2630-w-2nd",
      "name": "City Electric Supply - Denver Central (Colorado Electric Supply)",
      "chain": "City Electric Supply",
      "address1": "2630 W 2nd Ave",
      "city": "Denver",
      "state": "CO",
      "zip": "80219",
      "phone": "+13039960111",
      "lat": 39.719771,
      "lon": -105.019647,
      "brandsRep": [],
      "partsFor": [],
      "tags": [
        "electrical",
        "wholesale"
      ]
    },
    {
      "id": "co-denver-electrical-border-states-denver-5475-joliet",
      "name": "Border States Electric - Denver",
      "chain": "Border States",
      "address1": "5475 Joliet St Unit B",
      "city": "Denver",
      "state": "CO",
      "zip": "80239",
      "phone": "+17205319895",
      "lat": null,
      "lon": null,
      "brandsRep": [],
      "partsFor": [],
      "tags": [
        "electrical",
        "wholesale"
      ]
    },
    {
      "id": "co-denver-electrical-crescent-electric-denver-5925-washington",
      "name": "Crescent Electric Supply Company - Denver (Branch #B080)",
      "chain": "Crescent Electric",
      "address1": "5925 Washington St Ste 300",
      "city": "Denver",
      "state": "CO",
      "zip": "80216",
      "phone": "+13036291188",
      "lat": null,
      "lon": null,
      "brandsRep": [],
      "partsFor": [],
      "tags": [
        "electrical",
        "wholesale"
      ]
    },
    {
      "id": "co-denver-electrical-wesco-denver-11198-e-45th",
      "name": "WESCO - Denver",
      "chain": "WESCO",
      "address1": "11198 E 45th Ave",
      "city": "Denver",
      "state": "CO",
      "zip": "80239",
      "phone": "+13033221722",
      "lat": null,
      "lon": null,
      "brandsRep": [],
      "partsFor": [],
      "tags": [
        "electrical",
        "wholesale"
      ]
    },
    {
      "id": "co-denver-electrical-anixter-denver-10432-e-49th",
      "name": "Anixter - Denver",
      "chain": "Anixter",
      "address1": "10432 E 49th Avenue",
      "city": "Denver",
      "state": "CO",
      "zip": "80238",
      "phone": "+13033739200",
      "lat": null,
      "lon": null,
      "brandsRep": [],
      "partsFor": [],
      "tags": [
        "electrical",
        "wholesale"
      ]
    },
    {
      "id": "co-denver-electrical-qed-denver-1661-w-3rd",
      "name": "Quality Electrical Distribution (QED) - Denver",
      "chain": "QED",
      "address1": "1661 W 3rd Ave",
      "city": "Denver",
      "state": "CO",
      "zip": "80223",
      "phone": "+13038255011",
      "lat": null,
      "lon": null,
      "brandsRep": [],
      "partsFor": [],
      "tags": [
        "electrical",
        "wholesale"
      ]
    },
    {
      "id": "co-denver-electrical-wesco-retail-denver-756-s-jason",
      "name": "WESCO Retail Branch - Denver",
      "chain": "WESCO",
      "address1": "756 S Jason St Unit 1",
      "city": "Denver",
      "state": "CO",
      "zip": "80223",
      "phone": "+13037338600",
      "lat": null,
      "lon": null,
      "brandsRep": [],
      "partsFor": [],
      "tags": [
        "electrical",
        "wholesale"
      ]
    }
  ]
}