{
  "version": "COLORADO_SPRINGS_ELECTRICAL_EXPANSION_v2",
  "trade": "electrical",
  "metro": "Colorado Springs Metro",
  "state": "CO",
  "updated": "2025-12-25",
  "branches": [
    {
      "id": "cos-graybar",
      "name": "Graybar Electric – Colorado Springs",
      "chain": "Graybar",
      "trade": "electrical",
      "city": "Colorado Springs",
      "state": "CO",
      "postalCode": "80907",
      "address1": "2555 Busch Ave",
      "phone": "719-578-1611",
      "website": "https://www.graybar.com/",
      "coordsStatus": "verified",
      "notes": "Electrical supply counter storefront",
      "lat": 38.8897,
      "lon": -104.8313,
      "verification": {
        "coords_verified": "2025-12-26"
      }
    },
    {
      "id": "cos-ced",
      "name": "CED – Colorado Springs",
      "chain": "CED",
      "trade": "electrical",
      "city": "Colorado Springs",
      "state": "CO",
      "postalCode": "80907",
      "address1": "4305 N Sinton Rd",
      "phone": "719-598-1414",
      "website": "https://www.ced.com/",
      "coordsStatus": "verified",
      "notes": "Electrical supply counter storefront",
      "lat": 38.8896,
      "lon": -104.831,
      "verification": {
        "coords_verified": "2025-12-26"
      }
    },
    {
      "id": "cos-ces",
      "name": "City Electric Supply – Colorado Springs",
      "chain": "City Electric Supply",
      "trade": "electrical",
      "city": "Colorado Springs",
      "state": "CO",
      "postalCode": "80915",
      "address1": "2303 Waynoka Rd",
      "phone": "719-597-9000",
      "website": "https://www.cityelectricsupply.com/",
      "coordsStatus": "verified",
      "notes": "Electrical supply counter storefront",
      "lat": 38.7929,
      "lon": -104.7742,
      "verification": {
        "coords_verified": "2025-12-26"
      }
    },
    {
      "id": "co-colorado-springs-blazer-electric-1",
      "name": "Blazer Electric Supply",
      "chain": "Blazer Electric Supply",
      "trade": "electrical",
      "address1": "6125 Omaha Blvd",
      "address2": "",
      "city": "Colorado Springs",
      "state": "CO",
      "postalCode": "80915",
      "phone": "719-596-1333",
      "website": "",
      "lat": null,
      "lon": null,
      "coverage": "metro",
      "verified": "needs_verification",
      "verifiedDate": "",
      "accuracy": {
        "address": "verified",
        "phone": "verified",
        "coordinates": "approx"
      },
      "notes": "",
      "tags": [
        "electrical",
        "wholesale"
      ],
      "partsFor": [
        "Electrical"
      ],
      "brandsRep": [
        "Blazer Electric Supply"
      ],
      "services": [],
      "sources": [
        "https://www.buyblazer.com/"
      ]
    },
    {
      "id": "rexel-colorado-springs-3224",
      "name": "Rexel - Colorado Springs (#3224)",
      "chain": "Rexel",
      "trade": "electrical",
      "city": "Colorado Springs",
      "state": "CO",
      "postalCode": "80918",
      "address1": "4945 Northpark Drive",
      "phone": "719-596-1234",
      "website": "https://www.rexelusa.com/locations/co/colorado-springs/3224",
      "lat": null,
      "lon": null,
      "coordsStatus": "needs_verify",
      "brandsRep": [],
      "manufacturersPartsFor": [],
      "notes": "Rexel branch serving Colorado Springs.",
      "verification": {
        "storefront_confirmed": "2025-12-25",
        "sources": [
          "https://www.rexelusa.com/locations/co/colorado-springs/3224"
        ]
      }
    }
  ],
  "auditStatus": "pending_web_verification",
  "auditNotes": [
    "Rounds 1–5 initialized for Electrical under strict storefront rules.",
    "No storefronts were added in this pass because web verification (store locator + address + phone + map confirmation) has not yet been executed in this environment.",
    "Next step: web audit chain-by-chain (Graybar, Rexel/Platt, CED, Wesco/Anixter, Border States, City Electric Supply, Elliott Electric, etc.) then add only confirmed counter storefronts.",
    "Added confirmed electrical storefronts; coords pending verification.",
    "Coordinates verified for all listed branches.",
    "2025-12-25: Added 1 Rexel electrical branch entries (verified via Rexel location pages)."
  ]
}